{"type":"FeatureCollection","features":[{"type":"Feature","properties":{"name":"Constantinople","est. population":"0.40 millions","significance":"Major Roman city"},"geometry":{"coordinates":[28.98,41.0125],"type":"Point"},"id":0},{"type":"Feature","properties":{"name":"Luoyang","est. population":"0.20 millions","significance":"Major city in China"},"geometry":{"coordinates":[112.4539,34.6197],"type":"Point"},"id":0},{"type":"Feature","properties":{"name":"Rome","est. population":"0.15 millions","significance":"Capital of the Roman Empire"},"geometry":{"coordinates":[12.482778,41.893333],"type":"Point"},"id":2},{"type":"Feature","properties":{"name":"Jiankang","est. population":"0.15 million","significance":"Major city in China"},"geometry":{"coordinates":[118.79647,32.05837],"type":"Point"}},{"type":"Feature","properties":{"name":"Teotihuacan","est. population":"0.15 millions","significance":"Major Mesoamerican City"},"geometry":{"coordinates":[-98.843889,19.6925],"type":"Point"}},{"type":"Feature","properties":{"name":"Ctesiphon","est. population":"0.30 millions","significance":"Capital of the Sassanian Empire"},"geometry":{"coordinates":[44.580556,33.093611],"type":"Point"}},{"type":"Feature","properties":{"name":"Pataliputra","est. population":"0.28 millions","significance":"Major Indian city"},"geometry":{"coordinates":[85.128333,25.6125],"type":"Point"},"id":6}]}