{"type":"FeatureCollection","features":[{"type":"Feature","properties":{"name":"Constantinople","est. population":"0.40 millions","significance":"Major Roman city"},"geometry":{"coordinates":[28.98,41.0125],"type":"Point"},"id":0},{"type":"Feature","properties":{"name":"Luoyang","est. population":"0.20 millions","significance":"Major city in China"},"geometry":{"coordinates":[112.4539,34.6197],"type":"Point"},"id":0},{"type":"Feature","properties":{"name":"Chang'an","est. population":"0.15 million","significance":"Major city in China"},"geometry":{"coordinates":[108.9541,34.2658],"type":"Point"}},{"type":"Feature","properties":{"name":"Teotihuacan","est. population":"0.15 millions","significance":"Major Mesoamerican City"},"geometry":{"coordinates":[-98.843889,19.6925],"type":"Point"}},{"type":"Feature","properties":{"name":"Ctesiphon","est. population":"0.50 millions","significance":"Capital of the Sassanian Empire"},"geometry":{"coordinates":[44.580556,33.093611],"type":"Point"}},{"type":"Feature","properties":{"name":"El Pillar","est. population":"0.14 millions","significance":"Major Maya city"},"geometry":{"coordinates":[-89.155278,17.256667],"type":"Point"}},{"type":"Feature","properties":{"name":"Caracol","est. population":"0.14 millions","significance":"Major Maya City"},"geometry":{"coordinates":[-89.1175,16.763889],"type":"Point"}}]}