{"type":"FeatureCollection","features":[{"type":"Feature","properties":{"name":"New York","est. population":"11.5 millions","significance":"City in USA"},"geometry":{"coordinates":[-74.0059,40.7127],"type":"Point"},"id":0},{"type":"Feature","properties":{"name":"Paris","est. population":"5.6 millions","significance":"Capital of France"},"geometry":{"coordinates":[2.352222,48.856667],"type":"Point"},"id":0},{"type":"Feature","properties":{"name":"Moscow","est. population":"4.6 million","significance":"Capital of USSR"},"geometry":{"coordinates":[37.617222,55.755833],"type":"Point"}},{"type":"Feature","properties":{"name":"Chicago","est. population":"4.7 millions","significance":"City in USA"},"geometry":{"coordinates":[-87.627778,41.881944],"type":"Point"}},{"type":"Feature","properties":{"name":"London","est. population":"8.4 millions","significance":"Capital of the United Kingdom"},"geometry":{"coordinates":[-0.1275,51.507222],"type":"Point"}},{"type":"Feature","properties":{"name":"Osaka","est. population":"6 millions","significance":"City in Japan"},"geometry":{"coordinates":[135.502222,34.693889],"type":"Point"}},{"type":"Feature","properties":{"name":"Tokyo","est. population":"10 millions","significance":"Capital of Japan"},"geometry":{"coordinates":[139.774444,35.683889],"type":"Point"}}]}