{"type":"FeatureCollection","features":[{"type":"Feature","properties":{"name":"Babylon","est. population":"0.20 millions","significance":"Major city in Mesopotamia"},"geometry":{"coordinates":[44.421111,32.5425],"type":"Point"}},{"type":"Feature","properties":{"name":"Luoyang","est. population":"0.20 millions","significance":"Major city in China"},"geometry":{"coordinates":[112.4539,34.6197],"type":"Point"}},{"type":"Feature","properties":{"name":"Linzi","est. population":"0.20 millions","significance":"Major city in China"},"geometry":{"coordinates":[118.3,36.816667],"type":"Point"}},{"type":"Feature","properties":{"name":"Bian","est. population":"0.20 millions","significance":"Major city in China"},"geometry":{"coordinates":[114.345,34.795],"type":"Point"}},{"type":"Feature","properties":{"name":"Cathage","est. population":"0.20 millions","significance":"Capital of Carthaginian Empire"},"geometry":{"coordinates":[10.122041461703503,36.79708661797929],"type":"Point"}},{"type":"Feature","properties":{"name":"Syracuse","est. population":"0.10 millions","significance":"Major Greek city"},"geometry":{"coordinates":[15.2875,37.069167],"type":"Point"}},{"type":"Feature","properties":{"name":"Pataliputra","est. population":"0.10 millions","significance":"Major Indian city"},"geometry":{"coordinates":[85.128333,25.6125],"type":"Point"}}]}