{"type":"FeatureCollection","features":[{"type":"Feature","properties":{"name":"Shanghai","est. population":"21.5 millions","significance":"City in China"},"geometry":{"coordinates":[121.474722,31.228611],"type":"Point"},"id":0},{"type":"Feature","properties":{"name":"Mexico City","est. population":"20.6 millions","significance":"Capital of Mexico"},"geometry":{"coordinates":[-99.133333,19.433333],"type":"Point"},"id":0},{"type":"Feature","properties":{"name":"Sao Paulo","est. population":"20.1 million","significance":"City in Brazil"},"geometry":{"coordinates":[-46.633333,-23.55],"type":"Point"}},{"type":"Feature","properties":{"name":"Mumbai","est. population":"18.6 millions","significance":"City in India"},"geometry":{"coordinates":[72.8775,19.076111],"type":"Point"}},{"type":"Feature","properties":{"name":"New Delhi","est. population":"23.4 millions","significance":"Capital of India"},"geometry":{"coordinates":[77.208889,28.613889],"type":"Point"}},{"type":"Feature","properties":{"name":"Osaka","est. population":"19.3 millions","significance":"City in Japan"},"geometry":{"coordinates":[135.502222,34.693889],"type":"Point"}},{"type":"Feature","properties":{"name":"Tokyo","est. population":"37 millions","significance":"Capital of Japan"},"geometry":{"coordinates":[139.774444,35.683889],"type":"Point"}}]}