{"type":"FeatureCollection","features":[{"type":"Feature","properties":{"name":"Babylon","est. population":"0.20 millions","significance":"Major city in Mesopotamia"},"geometry":{"coordinates":[44.421111,32.5425],"type":"Point"}},{"type":"Feature","properties":{"name":"Caracol","est. population":"0.10 millions","significance":"Maya archeological site"},"geometry":{"coordinates":[-89.1175,16.763889],"type":"Point"}},{"type":"Feature","properties":{"name":"Luoyang","est. population":"0.20 millions","significance":"Major city in China"},"geometry":{"coordinates":[112.4539,34.6197],"type":"Point"}},{"type":"Feature","properties":{"name":"Linzi","est. population":"0.20 millions","significance":"Major city in China"},"geometry":{"coordinates":[118.3,36.816667],"type":"Point"}},{"type":"Feature","properties":{"name":"Cathage","est. population":"0.10 millions","significance":"Capital of Carthaginian Empire"},"geometry":{"coordinates":[10.122041461703503,36.79708661797929],"type":"Point"}},{"type":"Feature","properties":{"name":"Syracuse","est. population":"0.10 millions","significance":"Major Greek city"},"geometry":{"coordinates":[15.2875,37.069167],"type":"Point"}},{"type":"Feature","properties":{"name":"Rajagriha","est. population":"0.10 millions","significance":"Major Indian city"},"geometry":{"coordinates":[85.42,25.03],"type":"Point"}}]}