{"type":"FeatureCollection","features":[{"type":"Feature","properties":{"name":"Constantinople","est. population":"0.72 millions","significance":"Capital of the Ottoman Empire"},"geometry":{"coordinates":[28.98,
          41.0125],"type":"Point"},"id":0},{"type":"Feature","properties":{"name":"Paris","est. population":"0.45 millions","significance":"Capital of France"},"geometry":{"coordinates":[2.352222,48.856667],"type":"Point"},"id":0},{"type":"Feature","properties":{"name":"Agra","est. population":"0.50 million","significance":"Major city in India"},"geometry":{"coordinates":[78.02,27.18],"type":"Point"}},{"type":"Feature","properties":{"name":"Beijing","est. population":"0.50 millions","significance":"Major city in China"},"geometry":{"coordinates":[116.4,39.933333],"type":"Point"}},{"type":"Feature","properties":{"name":"London","est. population":"0.41","significance":"Capital of England"},"geometry":{"coordinates":[-0.1275,51.507222],"type":"Point"}},{"type":"Feature","properties":{"name":"Kyoto","est. population":"0.39 millions","significance":"Major city in Japan"},"geometry":{"coordinates":[135.768333,35.011667],"type":"Point"}},{"type":"Feature","properties":{"name":"Edo","est. population":"0.50 millions","significance":"Capital of Japan"},"geometry":{"coordinates":[139.774444,35.683889],"type":"Point"}}]}