{"type":"FeatureCollection","features":[{"type":"Feature","properties":{"name":"New York","est. population":"16.7 millions","significance":"City in USA"},"geometry":{"coordinates":[-74.0059,40.7127],"type":"Point"},"id":0},{"type":"Feature","properties":{"name":"Mexico City","est. population":"16.7 millions","significance":"Capital of Mexico"},"geometry":{"coordinates":[-99.133333,19.433333],"type":"Point"},"id":0},{"type":"Feature","properties":{"name":"Sao Paulo","est. population":"15.7 million","significance":"City in Brazil"},"geometry":{"coordinates":[-46.633333,-23.55],"type":"Point"}},{"type":"Feature","properties":{"name":"Bombay","est. population":"13.7 millions","significance":"City in India"},"geometry":{"coordinates":[72.8775,19.076111],"type":"Point"}},{"type":"Feature","properties":{"name":"Calcutta","est. population":"11.7 millions","significance":"City in India"},"geometry":{"coordinates":[88.37,22.5675],"type":"Point"}},{"type":"Feature","properties":{"name":"Osaka","est. population":"18.8 millions","significance":"City in Japan"},"geometry":{"coordinates":[135.502222,34.693889],"type":"Point"}},{"type":"Feature","properties":{"name":"Tokyo","est. population":"33.3 millions","significance":"Capital of Japan"},"geometry":{"coordinates":[139.774444,35.683889],"type":"Point"}}]}